[{"park_name": "Barclay Heritage Square", "type": "Community Center", "location": "Barclay Manor (WECC)", "geo_local_area": "West End", "summer_hours": "as per CC operating hours", "winter_hours": "as per CC operating hours", "wheelchair_access": "No", "note": "Maintained by Rec Center", "geom": {"type": "Feature", "geometry": {"coordinates": [-123.1325605108117, 49.28721486907015], "type": "Point"}, "properties": {}}, "geo_point_2d": {"lon": -123.1325605108117, "lat": 49.28721486907015}},{"park_name": "Bobolink Park", "type": "Park - Field House", "location": "North side, fieldhouse", "geo_local_area": "Victoria-Fraserview", "summer_hours": "Dawn to Dusk", "winter_hours": "Dawn to Dusk", "wheelchair_access": "No", "note": null, "geom": {"type": "Feature", "geometry": {"coordinates": [-123.0564149547593, 49.21560698536666], "type": "Point"}, "properties": {}}, "geo_point_2d": {"lon": -123.0564149547593, "lat": 49.21560698536666}},{"park_name": "Chaldecott Park", "type": "Park - Field House", "location": "East side fieldhouse", "geo_local_area": "Dunbar-Southlands", "summer_hours": "Dawn to Dusk", "winter_hours": "Dawn to Dusk", "wheelchair_access": "No", "note": null, "geom": {"type": "Feature", "geometry": {"coordinates": [-123.19112496215546, 49.24942695918215], "type": "Point"}, "properties": {}}, "geo_point_2d": {"lon": -123.19112496215546, "lat": 49.24942695918215}},{"park_name": "Clinton Park", "type": "Park - Field House", "location": "North east corner, fieldhouse", "geo_local_area": "Hastings-Sunrise", "summer_hours": "Dawn to Dusk", "winter_hours": "Dawn to Dusk", "wheelchair_access": "No", "note": null, "geom": {"type": "Feature", "geometry": {"coordinates": [-123.04978202766654, 49.27114503209186], "type": "Point"}, "properties": {}}, "geo_point_2d": {"lon": -123.04978202766654, "lat": 49.27114503209186}},{"park_name": "Columbia Park", "type": "Park - Portland Loo", "location": "West Side", "geo_local_area": "Oakridge", "summer_hours": "Dawn to Dusk Weekends only", "winter_hours": "Dawn to Dusk Weekends only", "wheelchair_access": "Yes", "note": null, "geom": {"type": "Feature", "geometry": {"coordinates": [-123.11313783023915, 49.23177479977243], "type": "Point"}, "properties": {}}, "geo_point_2d": {"lon": -123.11313783023915, "lat": 49.23177479977243}},{"park_name": "Granville Park", "type": "Park - Field House", "location": "Central, field house", "geo_local_area": "Fairview", "summer_hours": "Dawn to Dusk", "winter_hours": "Dawn to Dusk", "wheelchair_access": "No", "note": null, "geom": {"type": "Feature", "geometry": {"coordinates": [-123.1419699494165, 49.25849301101646], "type": "Point"}, "properties": {}}, "geo_point_2d": {"lon": -123.1419699494165, "lat": 49.25849301101646}},{"park_name": "Harbour Green Park", "type": "Park - Public Washroom", "location": "Central", "geo_local_area": "Downtown", "summer_hours": "Dawn to Dusk", "winter_hours": "Dawn to Dusk", "wheelchair_access": "No", "note": null, "geom": {"type": "Feature", "geometry": {"coordinates": [-123.12146699909357, 49.289804013552704], "type": "Point"}, "properties": {}}, "geo_point_2d": {"lon": -123.12146699909357, "lat": 49.289804013552704}},{"park_name": "Jonathan Rogers Park", "type": "Park - Field House", "location": "North side, fieldhouse", "geo_local_area": "Mount Pleasant", "summer_hours": "Dawn to Dusk", "winter_hours": "Dawn to Dusk", "wheelchair_access": "No", "note": null, "geom": {"type": "Feature", "geometry": {"coordinates": [-123.10762001604982, 49.26449802894082], "type": "Point"}, "properties": {}}, "geo_point_2d": {"lon": -123.10762001604982, "lat": 49.26449802894082}},{"park_name": "Sunset Beach Park", "type": "Park - Field House", "location": "Concession", "geo_local_area": "West End", "summer_hours": "Dawn to Dusk", "winter_hours": "7:00 am - Dusk", "wheelchair_access": "Yes", "note": null, "geom": {"type": "Feature", "geometry": {"coordinates": [-123.13795004381072, 49.27883701378575], "type": "Point"}, "properties": {}}, "geo_point_2d": {"lon": -123.13795004381072, "lat": 49.27883701378575}},{"park_name": "Evelyne Saller Centre", "type": "Community Center", "location": "320 Alexander St", "geo_local_area": "Strathcona", "summer_hours": "as per CC operating hours", "winter_hours": "as per CC operating hours", "wheelchair_access": null, "note": "Maintained by Rec Center", "geom": {"type": "Feature", "geometry": {"coordinates": [-123.09708430739617, 49.283874513136325], "type": "Point"}, "properties": {}}, "geo_point_2d": {"lon": -123.09708430739617, "lat": 49.283874513136325}},{"park_name": "Kitsilano War Memorial", "type": "Community Center", "location": "2690 Larch St", "geo_local_area": "Kitsilano", "summer_hours": "as per CC operating hours", "winter_hours": "as per CC operating hours", "wheelchair_access": null, "note": "Maintained by Rec Center", "geom": {"type": "Feature", "geometry": {"coordinates": [-123.16185934533655, 49.26234325331626], "type": "Point"}, "properties": {}}, "geo_point_2d": {"lon": -123.16185934533655, "lat": 49.26234325331626}},{"park_name": "Renfrew Park", "type": "Community Center", "location": "2929 E 22nd Av", "geo_local_area": "Renfrew-Collingwood", "summer_hours": "as per CC operating hours", "winter_hours": "as per CC operating hours", "wheelchair_access": null, "note": "Maintained by Rec Center", "geom": {"type": "Feature", "geometry": {"coordinates": [-123.04253597366504, 49.25139334511874], "type": "Point"}, "properties": {}}, "geo_point_2d": {"lon": -123.04253597366504, "lat": 49.25139334511874}},{"park_name": "Roundhouse", "type": "Community Center", "location": "181 Roundhouse Mews", "geo_local_area": "Downtown", "summer_hours": "as per CC operating hours", "winter_hours": "as per CC operating hours", "wheelchair_access": null, "note": "Maintained by Rec Center", "geom": {"type": "Feature", "geometry": {"coordinates": [-123.12187292336924, 49.27331410685403], "type": "Point"}, "properties": {}}, "geo_point_2d": {"lon": -123.12187292336924, "lat": 49.27331410685403}},{"park_name": "West End", "type": "Community Center", "location": "870 Denman St", "geo_local_area": "West End", "summer_hours": "as per CC operating hours", "winter_hours": "as per CC operating hours", "wheelchair_access": null, "note": "Maintained by Rec Center", "geom": {"type": "Feature", "geometry": {"coordinates": [-123.13607377734198, 49.28991296095473], "type": "Point"}, "properties": {}}, "geo_point_2d": {"lon": -123.13607377734198, "lat": 49.28991296095473}},{"park_name": "Spanish Banks Beach Park", "type": "Park - Field House", "location": "East, fieldhouse", "geo_local_area": "West Point Grey", "summer_hours": "Dawn to Dusk", "winter_hours": "Dawn to Dusk", "wheelchair_access": "Yes", "note": null, "geom": {"type": "Feature", "geometry": {"coordinates": [-123.21492003723966, 49.27624397436726], "type": "Point"}, "properties": {}}, "geo_point_2d": {"lon": -123.21492003723966, "lat": 49.27624397436726}},{"park_name": "Rupert Park", "type": "Park - Public Washroom", "location": "Pitch & Putt (north side)", "geo_local_area": "Hastings-Sunrise", "summer_hours": "Dawn to Dusk", "winter_hours": "Dawn to Dusk", "wheelchair_access": "Yes", "note": null, "geom": {"type": "Feature", "geometry": {"coordinates": [-123.03068295983304, 49.27305000035256], "type": "Point"}, "properties": {}}, "geo_point_2d": {"lon": -123.03068295983304, "lat": 49.27305000035256}},{"park_name": "VanDusen Botanical Garden", "type": "Park - Other Facilities", "location": "Floral hall", "geo_local_area": "Shaughnessy", "summer_hours": null, "winter_hours": null, "wheelchair_access": "No", "note": null, "geom": {"type": "Feature", "geometry": {"coordinates": [-123.12955764644596, 49.2386594319526], "type": "Point"}, "properties": {}}, "geo_point_2d": {"lon": -123.12955764644596, "lat": 49.2386594319526}},{"park_name": "s??q?lxen?m ts'exwts'a?xwi7 (Rainbow)", "type": "Park - Public Washroom", "location": "872 Richards St", "geo_local_area": "Downtown", "summer_hours": "Dawn to Dusk", "winter_hours": "Dawn to Dusk", "wheelchair_access": "Yes", "note": null, "geom": {"type": "Feature", "geometry": {"coordinates": [-123.11893195123973, 49.278985860864495], "type": "Point"}, "properties": {}}, "geo_point_2d": {"lon": -123.11893195123973, "lat": 49.278985860864495}},{"park_name": "Mccleery Golf Course", "type": "Park - Public Washroom", "location": "Unsure of exact location", "geo_local_area": "Kerrisdale", "summer_hours": null, "winter_hours": null, "wheelchair_access": null, "note": null, "geom": {"type": "Feature", "geometry": {"coordinates": [-123.16787418477047, 49.2210231720367], "type": "Point"}, "properties": {}}, "geo_point_2d": {"lon": -123.16787418477047, "lat": 49.2210231720367}},{"park_name": null, "type": "LargeAPT", "location": "Main St and Terminal Ave", "geo_local_area": "Strathcona", "summer_hours": "6am - 10pm", "winter_hours": "6am - 10pm", "wheelchair_access": "Yes", "note": null, "geom": {"type": "Feature", "geometry": {"coordinates": [-123.09976255831502, 49.27313308782912], "type": "Point"}, "properties": {}}, "geo_point_2d": {"lon": -123.09976255831502, "lat": 49.27313308782912}},{"park_name": null, "type": "SmallAPT", "location": "Robson St and Richards St", "geo_local_area": "Downtown", "summer_hours": "24hrs - 24hrs", "winter_hours": "24hrs - 24hrs", "wheelchair_access": "No", "note": null, "geom": {"type": "Feature", "geometry": {"coordinates": [-123.11803855424998, 49.28031868986809], "type": "Point"}, "properties": {}}, "geo_point_2d": {"lon": -123.11803855424998, "lat": 49.28031868986809}},{"park_name": "Andy Livingstone Park", "type": "Park - Field House", "location": "South side, fieldhouse", "geo_local_area": "Downtown", "summer_hours": "10:00 am - 11:00 pm", "winter_hours": "10:00 am - 11:00 pm", "wheelchair_access": "Yes", "note": null, "geom": {"type": "Feature", "geometry": {"coordinates": [-123.10359902275324, 49.27782096548506], "type": "Point"}, "properties": {}}, "geo_point_2d": {"lon": -123.10359902275324, "lat": 49.27782096548506}},{"park_name": "Balaclava Park", "type": "Park - Field House", "location": "Central, field house", "geo_local_area": "Dunbar-Southlands", "summer_hours": "Dawn to Dusk", "winter_hours": "Dawn to Dusk", "wheelchair_access": "No", "note": null, "geom": {"type": "Feature", "geometry": {"coordinates": [-123.17546094914356, 49.245233993117445], "type": "Point"}, "properties": {}}, "geo_point_2d": {"lon": -123.17546094914356, "lat": 49.245233993117445}},{"park_name": "Beaconsfield Park", "type": "Park - Field House", "location": "East side, fieldhouse", "geo_local_area": "Renfrew-Collingwood", "summer_hours": "Dawn to Dusk", "winter_hours": "Dawn to Dusk", "wheelchair_access": "No", "note": null, "geom": {"type": "Feature", "geometry": {"coordinates": [-123.0499339599333, 49.25523298884104], "type": "Point"}, "properties": {}}, "geo_point_2d": {"lon": -123.0499339599333, "lat": 49.25523298884104}},{"park_name": "Braemar Park", "type": "Park - Field House", "location": "East edge, fieldhouse", "geo_local_area": "South Cambie", "summer_hours": "Dawn to Dusk", "winter_hours": "Dawn to Dusk", "wheelchair_access": "No", "note": null, "geom": {"type": "Feature", "geometry": {"coordinates": [-123.12448302133969, 49.24742099334927], "type": "Point"}, "properties": {}}, "geo_point_2d": {"lon": -123.12448302133969, "lat": 49.24742099334927}},{"park_name": "Brewers Park", "type": "Park - Field House", "location": "North east corner fieldhouse", "geo_local_area": "Kensington-Cedar Cottage", "summer_hours": "Dawn to Dusk", "winter_hours": "Closed", "wheelchair_access": "No", "note": null, "geom": {"type": "Feature", "geometry": {"coordinates": [-123.06542594968943, 49.247854989506635], "type": "Point"}, "properties": {}}, "geo_point_2d": {"lon": -123.06542594968943, "lat": 49.247854989506635}},{"park_name": "Collingwood Park", "type": "Park - Field House", "location": "South corner, fieldhouse", "geo_local_area": "Renfrew-Collingwood", "summer_hours": "Dawn to Dusk", "winter_hours": "Dawn to Dusk", "wheelchair_access": "No", "note": null, "geom": {"type": "Feature", "geometry": {"coordinates": [-123.03671596074696, 49.23652996300201], "type": "Point"}, "properties": {}}, "geo_point_2d": {"lon": -123.03671596074696, "lat": 49.23652996300201}},{"park_name": "Falaise Park", "type": "Park - Field House", "location": "Community Hall", "geo_local_area": "Renfrew-Collingwood", "summer_hours": "Dawn to Dusk", "winter_hours": "Dawn to Dusk", "wheelchair_access": "No", "note": null, "geom": {"type": "Feature", "geometry": {"coordinates": [-123.02940598630023, 49.25512303377638], "type": "Point"}, "properties": {}}, "geo_point_2d": {"lon": -123.02940598630023, "lat": 49.25512303377638}},{"park_name": "Fraserview Golf Course", "type": "Park - Public Washroom", "location": "Kerr Road @13th hole", "geo_local_area": "Killarney", "summer_hours": "Dawn to Dusk", "winter_hours": "Dawn to Dusk", "wheelchair_access": "No", "note": null, "geom": {"type": "Feature", "geometry": {"coordinates": [-123.04229966821495, 49.21129535127691], "type": "Point"}, "properties": {}}, "geo_point_2d": {"lon": -123.04229966821495, "lat": 49.21129535127691}},{"park_name": "Moberly Park", "type": "Park - Field House", "location": "South west corner at Community Hall", "geo_local_area": "Sunset", "summer_hours": "Dawn to Dusk", "winter_hours": "Dawn to Dusk", "wheelchair_access": "Yes", "note": null, "geom": {"type": "Feature", "geometry": {"coordinates": [-123.08735497868794, 49.2152529947934], "type": "Point"}, "properties": {}}, "geo_point_2d": {"lon": -123.08735497868794, "lat": 49.2152529947934}},{"park_name": "Montgomery Park", "type": "Park - Field House", "location": "North east corner", "geo_local_area": "Oakridge", "summer_hours": "Dawn to Dusk", "winter_hours": "Dawn to Dusk", "wheelchair_access": "No", "note": null, "geom": {"type": "Feature", "geometry": {"coordinates": [-123.12924098629418, 49.23182604554475], "type": "Point"}, "properties": {}}, "geo_point_2d": {"lon": -123.12924098629418, "lat": 49.23182604554475}},{"park_name": "Quilchena Park", "type": "Park - Field House", "location": "North east corner, fieldhouse", "geo_local_area": "Arbutus Ridge", "summer_hours": "Dawn to Dusk", "winter_hours": "Dawn to Dusk", "wheelchair_access": "Yes", "note": null, "geom": {"type": "Feature", "geometry": {"coordinates": [-123.14872394440481, 49.24464304772728], "type": "Point"}, "properties": {}}, "geo_point_2d": {"lon": -123.14872394440481, "lat": 49.24464304772728}},{"park_name": "Strathcona", "type": "Community Center", "location": "601 Keefer St", "geo_local_area": "Strathcona", "summer_hours": "as per CC operating hours", "winter_hours": "as per CC operating hours", "wheelchair_access": null, "note": "Maintained by Rec Center", "geom": {"type": "Feature", "geometry": {"coordinates": [-123.09154620769539, 49.27977979183258], "type": "Point"}, "properties": {}}, "geo_point_2d": {"lon": -123.09154620769539, "lat": 49.27977979183258}},{"park_name": "West Point Grey", "type": "Community Center", "location": "4397 W 2nd Av", "geo_local_area": "West Point Grey", "summer_hours": "as per CC operating hours", "winter_hours": "as per CC operating hours", "wheelchair_access": null, "note": "Maintained by Rec Center", "geom": {"type": "Feature", "geometry": {"coordinates": [-123.2045334775624, 49.271797159811925], "type": "Point"}, "properties": {}}, "geo_point_2d": {"lon": -123.2045334775624, "lat": 49.271797159811925}},{"park_name": "Jericho Beach Park", "type": "Park - Public Washroom", "location": "Service Yard - public exterior attached to service building", "geo_local_area": "West Point Grey", "summer_hours": "Dawn - 11:00 pm", "winter_hours": "Dawn - 11:00 pm", "wheelchair_access": "Yes", "note": null, "geom": {"type": "Feature", "geometry": {"coordinates": [-123.20282013106967, 49.27442916398891], "type": "Point"}, "properties": {}}, "geo_point_2d": {"lon": -123.20282013106967, "lat": 49.27442916398891}},{"park_name": "Coopers' Park", "type": "Park - Portland Loo", "location": "East side of baskeball court", "geo_local_area": "Downtown", "summer_hours": "24 hrs", "winter_hours": "24 hrs", "wheelchair_access": "Yes", "note": null, "geom": {"type": "Feature", "geometry": {"coordinates": [-123.11441858743608, 49.2730422860486], "type": "Point"}, "properties": {}}, "geo_point_2d": {"lon": -123.11441858743608, "lat": 49.2730422860486}},{"park_name": null, "type": "SmallAPT", "location": "Richards St and Davie St, Emery Barnes Park", "geo_local_area": "Downtown", "summer_hours": "24hrs - 24hrs", "winter_hours": "24hrs - 24hrs", "wheelchair_access": "No", "note": null, "geom": {"type": "Feature", "geometry": {"coordinates": [-123.12409855430495, 49.27604879059326], "type": "Point"}, "properties": {}}, "geo_point_2d": {"lon": -123.12409855430495, "lat": 49.27604879059326}},{"park_name": null, "type": "LargeAPT", "location": "Robson St and Granville St", "geo_local_area": "Downtown", "summer_hours": "6am - 10pm", "winter_hours": "6am - 10pm", "wheelchair_access": "Yes", "note": null, "geom": {"type": "Feature", "geometry": {"coordinates": [-123.12006655436043, 49.28162689042433], "type": "Point"}, "properties": {}}, "geo_point_2d": {"lon": -123.12006655436043, "lat": 49.28162689042433}},{"park_name": "Burrard View Park", "type": "Park - Field House", "location": "Fieldhouse", "geo_local_area": "Hastings-Sunrise", "summer_hours": "Dawn to Dusk", "winter_hours": "Dawn to Dusk", "wheelchair_access": "No", "note": null, "geom": {"type": "Feature", "geometry": {"coordinates": [-123.0496489708471, 49.29036396133096], "type": "Point"}, "properties": {}}, "geo_point_2d": {"lon": -123.0496489708471, "lat": 49.29036396133096}},{"park_name": "Carnarvon Park", "type": "Park - Field House", "location": "West side, field house", "geo_local_area": "Arbutus Ridge", "summer_hours": "Dawn to Dusk", "winter_hours": "Dawn to Dusk", "wheelchair_access": "No", "note": null, "geom": {"type": "Feature", "geometry": {"coordinates": [-123.17260900971546, 49.25674201569889], "type": "Point"}, "properties": {}}, "geo_point_2d": {"lon": -123.17260900971546, "lat": 49.25674201569889}},{"park_name": "Elm Park", "type": "Park - Field House", "location": "Central, field house", "geo_local_area": "Kerrisdale", "summer_hours": "Dawn to Dusk", "winter_hours": "Dawn to Dusk", "wheelchair_access": "No", "note": null, "geom": {"type": "Feature", "geometry": {"coordinates": [-123.16328394393365, 49.23343197827387], "type": "Point"}, "properties": {}}, "geo_point_2d": {"lon": -123.16328394393365, "lat": 49.23343197827387}},{"park_name": "Memorial South Park", "type": "Park - Field House", "location": "Oval", "geo_local_area": "Sunset", "summer_hours": "Dawn to Dusk", "winter_hours": "Dawn to Dusk", "wheelchair_access": "Yes", "note": null, "geom": {"type": "Feature", "geometry": {"coordinates": [-123.08438800219717, 49.23073803414045], "type": "Point"}, "properties": {}}, "geo_point_2d": {"lon": -123.08438800219717, "lat": 49.23073803414045}},{"park_name": "Norquay Park", "type": "Park - Field House", "location": "West side, field house", "geo_local_area": "Renfrew-Collingwood", "summer_hours": "Dawn to Dusk", "winter_hours": "Dawn to Dusk", "wheelchair_access": "No", "note": null, "geom": {"type": "Feature", "geometry": {"coordinates": [-123.05142495965826, 49.23797498982738], "type": "Point"}, "properties": {}}, "geo_point_2d": {"lon": -123.05142495965826, "lat": 49.23797498982738}},{"park_name": "Sunrise Park", "type": "Park - Field House", "location": "North west corner, fieldhouse", "geo_local_area": "Hastings-Sunrise", "summer_hours": "Dawn to Dusk", "winter_hours": "Dawn to Dusk", "wheelchair_access": "No", "note": null, "geom": {"type": "Feature", "geometry": {"coordinates": [-123.03601798297022, 49.26692299065219], "type": "Point"}, "properties": {}}, "geo_point_2d": {"lon": -123.03601798297022, "lat": 49.26692299065219}},{"park_name": "Trillium Park", "type": "Park - Field House", "location": "Fieldhouses North of Fields", "geo_local_area": "Strathcona", "summer_hours": "Dawn to 10:15 pm", "winter_hours": "Dawn to 10:15 pm", "wheelchair_access": "Yes", "note": null, "geom": {"type": "Feature", "geometry": {"coordinates": [-123.09279211961662, 49.274907788983555], "type": "Point"}, "properties": {}}, "geo_point_2d": {"lon": -123.09279211961662, "lat": 49.274907788983555}},{"park_name": "Vanier Park", "type": "Park - Field House", "location": "Burrard Civic Marina", "geo_local_area": "Kitsilano", "summer_hours": "Dawn to Dusk", "winter_hours": "Dawn to Dusk", "wheelchair_access": "Yes", "note": null, "geom": {"type": "Feature", "geometry": {"coordinates": [-123.13985594322915, 49.275196010474275], "type": "Point"}, "properties": {}}, "geo_point_2d": {"lon": -123.13985594322915, "lat": 49.275196010474275}},{"park_name": "Queen Elizabeth Park", "type": "Park - Field House", "location": "Fieldhouse", "geo_local_area": "Riley Park", "summer_hours": "Dawn to Dusk", "winter_hours": "Dawn to Dusk", "wheelchair_access": "No", "note": null, "geom": {"type": "Feature", "geometry": {"coordinates": [-123.11157705659876, 49.23893801685196], "type": "Point"}, "properties": {}}, "geo_point_2d": {"lon": -123.11157705659876, "lat": 49.23893801685196}},{"park_name": "Stanley Park", "type": "Park - Field House", "location": "Prospect Point Picnic, fieldhouse", "geo_local_area": null, "summer_hours": "Dawn to Dusk", "winter_hours": "Dawn to Dusk", "wheelchair_access": "Yes", "note": null, "geom": {"type": "Feature", "geometry": {"coordinates": [-123.14838804055677, 49.31055002745758], "type": "Point"}, "properties": {}}, "geo_point_2d": {"lon": -123.14838804055677, "lat": 49.31055002745758}},{"park_name": "Stanley Park", "type": "Park - Field House", "location": "2nd Beach, fieldhouse", "geo_local_area": null, "summer_hours": "Dawn to Dusk", "winter_hours": "Dawn to Dusk", "wheelchair_access": "Yes", "note": null, "geom": {"type": "Feature", "geometry": {"coordinates": [-123.15058105411318, 49.295531100617225], "type": "Point"}, "properties": {}}, "geo_point_2d": {"lon": -123.15058105411318, "lat": 49.295531100617225}},{"park_name": "Stanley Park", "type": "Park - Field House", "location": "3rd Beach, fieldhouse", "geo_local_area": null, "summer_hours": "Dawn to Dusk", "winter_hours": "Dawn to Dusk", "wheelchair_access": "Yes", "note": null, "geom": {"type": "Feature", "geometry": {"coordinates": [-123.15593104827661, 49.303152991485184], "type": "Point"}, "properties": {}}, "geo_point_2d": {"lon": -123.15593104827661, "lat": 49.303152991485184}},{"park_name": "Stanley Park", "type": "Park - Public Washroom", "location": "Brockton Oval", "geo_local_area": null, "summer_hours": "Dawn to Dusk", "winter_hours": "Dawn to Dusk", "wheelchair_access": "Yes", "note": null, "geom": {"type": "Feature", "geometry": {"coordinates": [-123.1260230030714, 49.29962596371685], "type": "Point"}, "properties": {}}, "geo_point_2d": {"lon": -123.1260230030714, "lat": 49.29962596371685}},{"park_name": "Kingcrest Park", "type": "Park - Public Washroom", "location": "Playground", "geo_local_area": "Kensington-Cedar Cottage", "summer_hours": "Dawn to Dusk", "winter_hours": "Dawn to Dusk", "wheelchair_access": "Yes", "note": null, "geom": {"type": "Feature", "geometry": {"coordinates": [-123.07460205675565, 49.24731189166449], "type": "Point"}, "properties": {}}, "geo_point_2d": {"lon": -123.07460205675565, "lat": 49.24731189166449}},{"park_name": "China Creek North Park", "type": "Park - Public Washroom", "location": "south-east corner", "geo_local_area": "Mount Pleasant", "summer_hours": "Dawn to Dusk", "winter_hours": "Dawn to Dusk", "wheelchair_access": "Yes", "note": null, "geom": {"type": "Feature", "geometry": {"coordinates": [-123.08153102730606, 49.264494245003455], "type": "Point"}, "properties": {}}, "geo_point_2d": {"lon": -123.08153102730606, "lat": 49.264494245003455}},{"park_name": "Stanley Park", "type": "Park - Public Washroom", "location": "Aquarium plaza", "geo_local_area": null, "summer_hours": "Dawn to Dusk", "winter_hours": "Dawn to Dusk", "wheelchair_access": "Yes", "note": "Not Managed by PB", "geom": {"type": "Feature", "geometry": {"coordinates": [-123.13070000527493, 49.29986799505929], "type": "Point"}, "properties": {}}, "geo_point_2d": {"lon": -123.13070000527493, "lat": 49.29986799505929}},{"park_name": "Stanley Park", "type": "Park - Public Washroom", "location": "Chilco - Lost Lagoon", "geo_local_area": null, "summer_hours": "Dawn to Dusk", "winter_hours": "Dawn to Dusk", "wheelchair_access": "Yes", "note": null, "geom": {"type": "Feature", "geometry": {"coordinates": [-123.13859102966137, 49.29392203706443], "type": "Point"}, "properties": {}}, "geo_point_2d": {"lon": -123.13859102966137, "lat": 49.29392203706443}},{"park_name": "Empire Fields - Hastings Park", "type": "Park - Field House", "location": "West Side", "geo_local_area": "Hastings-Sunrise", "summer_hours": null, "winter_hours": null, "wheelchair_access": null, "note": null, "geom": {"type": "Feature", "geometry": {"coordinates": [-123.03430857894679, 49.28250644914754], "type": "Point"}, "properties": {}}, "geo_point_2d": {"lon": -123.03430857894679, "lat": 49.28250644914754}},{"park_name": "Hadden Park", "type": "Park - Field House", "location": "West, caretaker house (actually in Kits)", "geo_local_area": "Kitsilano", "summer_hours": "Dawn to Dusk", "winter_hours": "Dawn to Dusk", "wheelchair_access": "Yes", "note": null, "geom": {"type": "Feature", "geometry": {"coordinates": [-123.15030998197221, 49.27746099219153], "type": "Point"}, "properties": {}}, "geo_point_2d": {"lon": -123.15030998197221, "lat": 49.27746099219153}},{"park_name": "MacLean Park", "type": "Park - Field House", "location": "North west corner, fieldhouse", "geo_local_area": "Strathcona", "summer_hours": "Dawn to Dusk", "winter_hours": "Dawn to Dusk", "wheelchair_access": "No", "note": null, "geom": {"type": "Feature", "geometry": {"coordinates": [-123.08936604005854, 49.27900702156872], "type": "Point"}, "properties": {}}, "geo_point_2d": {"lon": -123.08936604005854, "lat": 49.27900702156872}},{"park_name": "Ross Park", "type": "Park - Field House", "location": "South west corner, fieldhouse", "geo_local_area": "Sunset", "summer_hours": "Dawn to Dusk", "winter_hours": "Dawn to Dusk", "wheelchair_access": "Yes", "note": null, "geom": {"type": "Feature", "geometry": {"coordinates": [-123.08279803559799, 49.21669998012449], "type": "Point"}, "properties": {}}, "geo_point_2d": {"lon": -123.08279803559799, "lat": 49.21669998012449}},{"park_name": "Slocan Park", "type": "Park - Field House", "location": "North side", "geo_local_area": "Renfrew-Collingwood", "summer_hours": "Dawn to Dusk", "winter_hours": "Dawn to Dusk", "wheelchair_access": "Yes", "note": null, "geom": {"type": "Feature", "geometry": {"coordinates": [-123.04795201778296, 49.24443797709919], "type": "Point"}, "properties": {}}, "geo_point_2d": {"lon": -123.04795201778296, "lat": 49.24443797709919}},{"park_name": "West Point Grey Park", "type": "Park - Field House", "location": "Centre", "geo_local_area": "West Point Grey", "summer_hours": "Dawn to Dusk", "winter_hours": "Dawn to Dusk", "wheelchair_access": "No", "note": null, "geom": {"type": "Feature", "geometry": {"coordinates": [-123.20457956432331, 49.26654154245594], "type": "Point"}, "properties": {}}, "geo_point_2d": {"lon": -123.20457956432331, "lat": 49.26654154245594}},{"park_name": "Champlain Heights", "type": "Community Center", "location": "3350 Maquinna Drive", "geo_local_area": "Killarney", "summer_hours": "as per CC operating hours", "winter_hours": "as per CC operating hours", "wheelchair_access": null, "note": "Maintained by Rec Center", "geom": {"type": "Feature", "geometry": {"coordinates": [-123.03206634777003, 49.214448061453886], "type": "Point"}, "properties": {}}, "geo_point_2d": {"lon": -123.03206634777003, "lat": 49.214448061453886}},{"park_name": "Gathering Place", "type": "Community Center", "location": "609 Helmcken St", "geo_local_area": "Downtown", "summer_hours": "as per CC operating hours", "winter_hours": "as per CC operating hours", "wheelchair_access": null, "note": "Maintained by Rec Center", "geom": {"type": "Feature", "geometry": {"coordinates": [-123.12348216441738, 49.27798999137717], "type": "Point"}, "properties": {}}, "geo_point_2d": {"lon": -123.12348216441738, "lat": 49.27798999137717}},{"park_name": "Stanley Park", "type": "Park - Public Washroom", "location": "SP Brewing", "geo_local_area": null, "summer_hours": "Dawn to Dusk", "winter_hours": "Dawn to Dusk", "wheelchair_access": "Yes", "note": null, "geom": {"type": "Feature", "geometry": {"coordinates": [-123.14658004093586, 49.292293020819386], "type": "Point"}, "properties": {}}, "geo_point_2d": {"lon": -123.14658004093586, "lat": 49.292293020819386}},{"park_name": "Stanley Park", "type": "Park - Public Washroom", "location": "Lumberman's Arch", "geo_local_area": null, "summer_hours": "Dawn to Dusk", "winter_hours": "Dawn to Dusk", "wheelchair_access": "Yes", "note": null, "geom": {"type": "Feature", "geometry": {"coordinates": [-123.13070797861171, 49.302925983765704], "type": "Point"}, "properties": {}}, "geo_point_2d": {"lon": -123.13070797861171, "lat": 49.302925983765704}},{"park_name": "Spanish Banks - Extension", "type": "Park - Portable Toilet", "location": "West Parking Lot", "geo_local_area": null, "summer_hours": null, "winter_hours": null, "wheelchair_access": null, "note": null, "geom": {"type": "Feature", "geometry": {"coordinates": [-123.23169795755233, 49.2785519050673], "type": "Point"}, "properties": {}}, "geo_point_2d": {"lon": -123.23169795755233, "lat": 49.2785519050673}},{"park_name": "Gordon Park", "type": "Park - Field House", "location": "East side", "geo_local_area": "Victoria-Fraserview", "summer_hours": "Dawn to Dusk", "winter_hours": "Dawn to Dusk", "wheelchair_access": "No", "note": null, "geom": {"type": "Feature", "geometry": {"coordinates": [-123.0694999779781, 49.223870044041504], "type": "Point"}, "properties": {}}, "geo_point_2d": {"lon": -123.0694999779781, "lat": 49.223870044041504}},{"park_name": "Tatlow Park", "type": "Park - Field House", "location": "South, field house", "geo_local_area": "Kitsilano", "summer_hours": "Dawn to Dusk", "winter_hours": "Dawn to Dusk", "wheelchair_access": "No", "note": null, "geom": {"type": "Feature", "geometry": {"coordinates": [-123.1695119500403, 49.26947601104013], "type": "Point"}, "properties": {}}, "geo_point_2d": {"lon": -123.1695119500403, "lat": 49.26947601104013}},{"park_name": "Dunbar", "type": "Community Center", "location": "4747 Dunbar St", "geo_local_area": "Dunbar-Southlands", "summer_hours": "as per CC operating hours", "winter_hours": "as per CC operating hours", "wheelchair_access": null, "note": "Maintained by Rec Center", "geom": {"type": "Feature", "geometry": {"coordinates": [-123.18825196095462, 49.24281542583886], "type": "Point"}, "properties": {}}, "geo_point_2d": {"lon": -123.18825196095462, "lat": 49.24281542583886}},{"park_name": "Marpole-Oakridge", "type": "Community Center", "location": "990 W 59th Av", "geo_local_area": "Marpole", "summer_hours": "as per CC operating hours", "winter_hours": "as per CC operating hours", "wheelchair_access": null, "note": "Maintained by Rec Center", "geom": {"type": "Feature", "geometry": {"coordinates": [-123.1286795021491, 49.21677185719873], "type": "Point"}, "properties": {}}, "geo_point_2d": {"lon": -123.1286795021491, "lat": 49.21677185719873}},{"park_name": "Sunset", "type": "Community Center", "location": "6810 Main St", "geo_local_area": "Sunset", "summer_hours": "as per CC operating hours", "winter_hours": "as per CC operating hours", "wheelchair_access": null, "note": "Maintained by Rec Center", "geom": {"type": "Feature", "geometry": {"coordinates": [-123.10061043466422, 49.22286659360525], "type": "Point"}, "properties": {}}, "geo_point_2d": {"lon": -123.10061043466422, "lat": 49.22286659360525}},{"park_name": "Jericho Beach Park", "type": "Park - Field House", "location": "Concession/fieldhouse", "geo_local_area": "West Point Grey", "summer_hours": "Dawn to Dusk", "winter_hours": "Dawn to Dusk", "wheelchair_access": "Yes", "note": null, "geom": {"type": "Feature", "geometry": {"coordinates": [-123.19165896021171, 49.27158002043859], "type": "Point"}, "properties": {}}, "geo_point_2d": {"lon": -123.19165896021171, "lat": 49.27158002043859}},{"park_name": "Kitsilano Beach Park", "type": "Park - Public Washroom", "location": "Lifeguard station", "geo_local_area": "Kitsilano", "summer_hours": "Dawn to Dusk", "winter_hours": "Dawn to Dusk", "wheelchair_access": "Yes", "note": null, "geom": {"type": "Feature", "geometry": {"coordinates": [-123.15370297407691, 49.274471992371346], "type": "Point"}, "properties": {}}, "geo_point_2d": {"lon": -123.15370297407691, "lat": 49.274471992371346}},{"park_name": "Queen Elizabeth Park", "type": "Park - Public Washroom", "location": "Under \"Seasons\"", "geo_local_area": "Riley Park", "summer_hours": "7:30 am - 9:00 pm", "winter_hours": "7:30 am - 9:00 pm", "wheelchair_access": "No", "note": null, "geom": {"type": "Feature", "geometry": {"coordinates": [-123.11176444175848, 49.24182883201732], "type": "Point"}, "properties": {}}, "geo_point_2d": {"lon": -123.11176444175848, "lat": 49.24182883201732}},{"park_name": "Rupert Park", "type": "Park - Field House", "location": "South side, fieldhouse", "geo_local_area": "Hastings-Sunrise", "summer_hours": "Dawn to Dusk", "winter_hours": "Dawn to Dusk", "wheelchair_access": "Yes", "note": null, "geom": {"type": "Feature", "geometry": {"coordinates": [-123.03060498029191, 49.270135003328], "type": "Point"}, "properties": {}}, "geo_point_2d": {"lon": -123.03060498029191, "lat": 49.270135003328}},{"park_name": "VanDusen Botanical Garden", "type": "Park - Other Facilities", "location": "At front entrance", "geo_local_area": "Shaughnessy", "summer_hours": null, "winter_hours": null, "wheelchair_access": "No", "note": null, "geom": {"type": "Feature", "geometry": {"coordinates": [-123.12863834069158, 49.23851044914224], "type": "Point"}, "properties": {}}, "geo_point_2d": {"lon": -123.12863834069158, "lat": 49.23851044914224}},{"park_name": "Stanley Park", "type": "Park - Public Washroom", "location": "Pitch & Putt Golf Course", "geo_local_area": null, "summer_hours": "Dawn to Dusk", "winter_hours": "Dawn to Dusk", "wheelchair_access": "Yes", "note": null, "geom": {"type": "Feature", "geometry": {"coordinates": [-123.14659902498154, 49.29303503648441], "type": "Point"}, "properties": {}}, "geo_point_2d": {"lon": -123.14659902498154, "lat": 49.29303503648441}},{"park_name": "Sunset Beach", "type": "Park - Vancouver Aquatic Center", "location": "Vancouver Aquatic Center", "geo_local_area": "West End", "summer_hours": null, "winter_hours": null, "wheelchair_access": null, "note": null, "geom": {"type": "Feature", "geometry": {"coordinates": [-123.13542456694313, 49.27677906039137], "type": "Point"}, "properties": {}}, "geo_point_2d": {"lon": -123.13542456694313, "lat": 49.27677906039137}},{"park_name": "Riley Park", "type": "Park - Public Washroom", "location": "Fieldhouse", "geo_local_area": "Riley Park", "summer_hours": "Dawn to Dusk", "winter_hours": "Dawn to Dusk", "wheelchair_access": "No", "note": null, "geom": {"type": "Feature", "geometry": {"coordinates": [-123.10360324008157, 49.24203735141205], "type": "Point"}, "properties": {}}, "geo_point_2d": {"lon": -123.10360324008157, "lat": 49.24203735141205}},{"park_name": "CRAB Park at Portside", "type": "Park - Portland Loo", "location": "101 E Waterfront Rd", "geo_local_area": "Downtown", "summer_hours": "24 hrs", "winter_hours": "24 hrs", "wheelchair_access": "Yes", "note": null, "geom": {"type": "Feature", "geometry": {"coordinates": [-123.10183295751148, 49.284587647061095], "type": "Point"}, "properties": {}}, "geo_point_2d": {"lon": -123.10183295751148, "lat": 49.284587647061095}},{"park_name": "Langara Golf Course", "type": "Park - Public Washroom", "location": "Exterior of Building", "geo_local_area": "Oakridge", "summer_hours": null, "winter_hours": null, "wheelchair_access": null, "note": null, "geom": {"type": "Feature", "geometry": {"coordinates": [-123.1125147594454, 49.22388735761178], "type": "Point"}, "properties": {}}, "geo_point_2d": {"lon": -123.1125147594454, "lat": 49.22388735761178}},{"park_name": null, "type": "SmallAPT", "location": "Bute St and Davie St", "geo_local_area": "West End", "summer_hours": "24hrs - 24hrs", "winter_hours": "24hrs - 24hrs", "wheelchair_access": "No", "note": null, "geom": {"type": "Feature", "geometry": {"coordinates": [-123.1331255518689, 49.28184849173398], "type": "Point"}, "properties": {}}, "geo_point_2d": {"lon": -123.1331255518689, "lat": 49.28184849173398}},{"park_name": null, "type": "SmallAPT", "location": "Nelson St and Howe St", "geo_local_area": "Downtown", "summer_hours": "24hrs - 24hrs", "winter_hours": "24hrs - 24hrs", "wheelchair_access": "No", "note": null, "geom": {"type": "Feature", "geometry": {"coordinates": [-123.12350055300317, 49.279690790811784], "type": "Point"}, "properties": {}}, "geo_point_2d": {"lon": -123.12350055300317, "lat": 49.279690790811784}},{"park_name": "Fraser River Park", "type": "Park - Public Washroom", "location": "West corner", "geo_local_area": "Kerrisdale", "summer_hours": "Dawn to Dusk", "winter_hours": "Closed", "wheelchair_access": "No", "note": null, "geom": {"type": "Feature", "geometry": {"coordinates": [-123.14985600420111, 49.20739499780498], "type": "Point"}, "properties": {}}, "geo_point_2d": {"lon": -123.14985600420111, "lat": 49.20739499780498}},{"park_name": "Hastings Community Park", "type": "Park - Field House", "location": "Central, field house", "geo_local_area": "Hastings-Sunrise", "summer_hours": "Dawn to Dusk", "winter_hours": "Closed", "wheelchair_access": "No", "note": null, "geom": {"type": "Feature", "geometry": {"coordinates": [-123.03787394911473, 49.28064797026025], "type": "Point"}, "properties": {}}, "geo_point_2d": {"lon": -123.03787394911473, "lat": 49.28064797026025}},{"park_name": "Locarno Park", "type": "Park - Field House", "location": "Concession at fieldhouse", "geo_local_area": "West Point Grey", "summer_hours": "Dawn to Dusk", "winter_hours": "Dawn to Dusk", "wheelchair_access": "No", "note": null, "geom": {"type": "Feature", "geometry": {"coordinates": [-123.20655501267099, 49.275065991158456], "type": "Point"}, "properties": {}}, "geo_point_2d": {"lon": -123.20655501267099, "lat": 49.275065991158456}},{"park_name": "McBride Park", "type": "Park - Field House", "location": "Central, field house", "geo_local_area": "Kitsilano", "summer_hours": "Dawn to Dusk", "winter_hours": "Dawn to Dusk", "wheelchair_access": "Yes", "note": null, "geom": {"type": "Feature", "geometry": {"coordinates": [-123.18014096216841, 49.26810696563152], "type": "Point"}, "properties": {}}, "geo_point_2d": {"lon": -123.18014096216841, "lat": 49.26810696563152}},{"park_name": "Nanaimo Park", "type": "Park - Field House", "location": "North side, fieldhouse", "geo_local_area": "Victoria-Fraserview", "summer_hours": "Dawn to Dusk", "winter_hours": "Dawn to Dusk", "wheelchair_access": "No", "note": null, "geom": {"type": "Feature", "geometry": {"coordinates": [-123.05742904218603, 49.22824199783675], "type": "Point"}, "properties": {}}, "geo_point_2d": {"lon": -123.05742904218603, "lat": 49.22824199783675}},{"park_name": "Oppenheimer Park", "type": "Park - Field House", "location": "North east corner", "geo_local_area": "Strathcona", "summer_hours": "Tue - Sat 9:00 am - 8:00 pm", "winter_hours": "Tue - Sat 9:00 am - 5:00 pm", "wheelchair_access": "No", "note": null, "geom": {"type": "Feature", "geometry": {"coordinates": [-123.09382210202949, 49.28272631667144], "type": "Point"}, "properties": {}}, "geo_point_2d": {"lon": -123.09382210202949, "lat": 49.28272631667144}},{"park_name": "Riverfront Park", "type": "Park - Public Washroom", "location": "North side", "geo_local_area": "Killarney", "summer_hours": "Dawn to Dusk", "winter_hours": "Dawn to Dusk", "wheelchair_access": "No", "note": null, "geom": {"type": "Feature", "geometry": {"coordinates": [-123.0518469713802, 49.20576803638567], "type": "Point"}, "properties": {}}, "geo_point_2d": {"lon": -123.0518469713802, "lat": 49.20576803638567}},{"park_name": "Trafalgar Park", "type": "Park - Field House", "location": "North side, fieldhouse", "geo_local_area": "Arbutus Ridge", "summer_hours": "Dawn to Dusk", "winter_hours": "Dawn to Dusk", "wheelchair_access": "Yes", "note": null, "geom": {"type": "Feature", "geometry": {"coordinates": [-123.16347197280247, 49.25155496544842], "type": "Point"}, "properties": {}}, "geo_point_2d": {"lon": -123.16347197280247, "lat": 49.25155496544842}},{"park_name": "Victoria Park", "type": "Park - Field House", "location": "West side", "geo_local_area": "Grandview-Woodland", "summer_hours": "Dawn to Dusk", "winter_hours": "Dawn to Dusk", "wheelchair_access": "No", "note": null, "geom": {"type": "Feature", "geometry": {"coordinates": [-123.06741301627554, 49.27174404161449], "type": "Point"}, "properties": {}}, "geo_point_2d": {"lon": -123.06741301627554, "lat": 49.27174404161449}},{"park_name": "Winona Park", "type": "Park - Field House", "location": "Fieldhouse", "geo_local_area": "Marpole", "summer_hours": "Dawn to Dusk", "winter_hours": "Dawn to Dusk", "wheelchair_access": "No", "note": null, "geom": {"type": "Feature", "geometry": {"coordinates": [-123.11294894481753, 49.21571797941276], "type": "Point"}, "properties": {}}, "geo_point_2d": {"lon": -123.11294894481753, "lat": 49.21571797941276}},{"park_name": "Woodland Park", "type": "Park - Field House", "location": "Central, field house", "geo_local_area": "Grandview-Woodland", "summer_hours": "Dawn to Dusk", "winter_hours": "Dawn to Dusk", "wheelchair_access": "No", "note": null, "geom": {"type": "Feature", "geometry": {"coordinates": [-123.07322000486613, 49.27836897097232], "type": "Point"}, "properties": {}}, "geo_point_2d": {"lon": -123.07322000486613, "lat": 49.27836897097232}},{"park_name": "Britannia", "type": "Community Center", "location": "1661 Napier St", "geo_local_area": "Grandview-Woodland", "summer_hours": "as per CC operating hours", "winter_hours": "as per CC operating hours", "wheelchair_access": null, "note": "Maintained by Rec Center", "geom": {"type": "Feature", "geometry": {"coordinates": [-123.07065277917624, 49.27504267038552], "type": "Point"}, "properties": {}}, "geo_point_2d": {"lon": -123.07065277917624, "lat": 49.27504267038552}},{"park_name": "Coal Harbour", "type": "Community Center", "location": "480 Broughton St", "geo_local_area": "Downtown", "summer_hours": "as per CC operating hours", "winter_hours": "as per CC operating hours", "wheelchair_access": null, "note": "Maintained by Rec Center", "geom": {"type": "Feature", "geometry": {"coordinates": [-123.12505292931658, 49.29029937889089], "type": "Point"}, "properties": {}}, "geo_point_2d": {"lon": -123.12505292931658, "lat": 49.29029937889089}},{"park_name": "Hastings", "type": "Community Center", "location": "3096 E Hastings St", "geo_local_area": "Hastings-Sunrise", "summer_hours": "as per CC operating hours", "winter_hours": "as per CC operating hours", "wheelchair_access": null, "note": "Maintained by Rec Center", "geom": {"type": "Feature", "geometry": {"coordinates": [-123.03930991502807, 49.28080523370132], "type": "Point"}, "properties": {}}, "geo_point_2d": {"lon": -123.03930991502807, "lat": 49.28080523370132}},{"park_name": "Kerrisdale", "type": "Community Center", "location": "5851 West Boulevard", "geo_local_area": "Kerrisdale", "summer_hours": "as per CC operating hours", "winter_hours": "as per CC operating hours", "wheelchair_access": null, "note": "Maintained by Rec Center", "geom": {"type": "Feature", "geometry": {"coordinates": [-123.15709290739301, 49.23318535416131], "type": "Point"}, "properties": {}}, "geo_point_2d": {"lon": -123.15709290739301, "lat": 49.23318535416131}},{"park_name": "Ray-Cam Co-Operative Center", "type": "Community Center", "location": "920 E Hastings St", "geo_local_area": "Strathcona", "summer_hours": "as per CC operating hours", "winter_hours": "as per CC operating hours", "wheelchair_access": null, "note": "Maintained by Rec Center", "geom": {"type": "Feature", "geometry": {"coordinates": [-123.0840893336462, 49.28073616037968], "type": "Point"}, "properties": {}}, "geo_point_2d": {"lon": -123.0840893336462, "lat": 49.28073616037968}},{"park_name": "Trout Lake", "type": "Community Center", "location": "3360 Victoria Drive", "geo_local_area": "Kensington-Cedar Cottage", "summer_hours": "as per CC operating hours", "winter_hours": "as per CC operating hours", "wheelchair_access": null, "note": "Maintained by Rec Center", "geom": {"type": "Feature", "geometry": {"coordinates": [-123.0655282767287, 49.25529203110348], "type": "Point"}, "properties": {}}, "geo_point_2d": {"lon": -123.0655282767287, "lat": 49.25529203110348}},{"park_name": "Spanish Banks Beach Park", "type": "Park - Field House", "location": "West, fieldhouse", "geo_local_area": "West Point Grey", "summer_hours": "Dawn to Dusk", "winter_hours": "Dawn to Dusk", "wheelchair_access": "Yes", "note": null, "geom": {"type": "Feature", "geometry": {"coordinates": [-123.22267905551811, 49.277471985052316], "type": "Point"}, "properties": {}}, "geo_point_2d": {"lon": -123.22267905551811, "lat": 49.277471985052316}},{"park_name": "Stanley Park", "type": "Park - Public Washroom", "location": "Prospect Point", "geo_local_area": null, "summer_hours": "Dawn to Dusk", "winter_hours": "Dawn to Dusk", "wheelchair_access": "Yes", "note": null, "geom": {"type": "Feature", "geometry": {"coordinates": [-123.14264883145943, 49.312411041976254], "type": "Point"}, "properties": {}}, "geo_point_2d": {"lon": -123.14264883145943, "lat": 49.312411041976254}},{"park_name": "Stanley Park", "type": "Park - Field House", "location": "Ceperley Picnic Shelter", "geo_local_area": null, "summer_hours": "Dawn to Dusk", "winter_hours": "Dawn to Dusk", "wheelchair_access": "Yes", "note": null, "geom": {"type": "Feature", "geometry": {"coordinates": [-123.14868000781655, 49.29359490462253], "type": "Point"}, "properties": {}}, "geo_point_2d": {"lon": -123.14868000781655, "lat": 49.29359490462253}},{"park_name": "Stanley Park", "type": "Park - Public Washroom", "location": "Train, Picnic Shelter", "geo_local_area": null, "summer_hours": "Dawn to Dusk", "winter_hours": "Dawn to Dusk", "wheelchair_access": "Yes", "note": null, "geom": {"type": "Feature", "geometry": {"coordinates": [-123.13292304169951, 49.30206900196944], "type": "Point"}, "properties": {}}, "geo_point_2d": {"lon": -123.13292304169951, "lat": 49.30206900196944}},{"park_name": "Stanley Park", "type": "Park - Public Washroom", "location": "Info Booth", "geo_local_area": null, "summer_hours": "Dawn to Dusk", "winter_hours": "Dawn to Dusk", "wheelchair_access": "Yes", "note": null, "geom": {"type": "Feature", "geometry": {"coordinates": [-123.13143296597215, 49.297753013375036], "type": "Point"}, "properties": {}}, "geo_point_2d": {"lon": -123.13143296597215, "lat": 49.297753013375036}},{"park_name": "Robson Park", "type": "Park - Field House", "location": "South East Corner Fieldhouse", "geo_local_area": "Mount Pleasant", "summer_hours": null, "winter_hours": null, "wheelchair_access": null, "note": null, "geom": {"type": "Feature", "geometry": {"coordinates": [-123.09133535945465, 49.25773293062128], "type": "Point"}, "properties": {}}, "geo_point_2d": {"lon": -123.09133535945465, "lat": 49.25773293062128}},{"park_name": "Oak Meadows Park", "type": "Park - Public Washroom", "location": "NW Corner", "geo_local_area": "South Cambie", "summer_hours": "Dawn to Dusk", "winter_hours": "Dawn to Dusk", "wheelchair_access": "Yes", "note": "Has Team Storage", "geom": {"type": "Feature", "geometry": {"coordinates": [-123.1269603577517, 49.239023555598024], "type": "Point"}, "properties": {}}, "geo_point_2d": {"lon": -123.1269603577517, "lat": 49.239023555598024}},{"park_name": "Musqueam Park", "type": "Park - Public Washroom", "location": "4000 SW Marine Dr", "geo_local_area": "Dunbar-Southlands", "summer_hours": null, "winter_hours": null, "wheelchair_access": null, "note": null, "geom": {"type": "Feature", "geometry": {"coordinates": [-123.18992303549685, 49.229432279280935], "type": "Point"}, "properties": {}}, "geo_point_2d": {"lon": -123.18992303549685, "lat": 49.229432279280935}},{"park_name": "Heather Marina", "type": "Other Facilities", "location": "Marina Building", "geo_local_area": "Fairview", "summer_hours": null, "winter_hours": null, "wheelchair_access": null, "note": null, "geom": {"type": "Feature", "geometry": {"coordinates": [-123.11871635134744, 49.26886147584729], "type": "Point"}, "properties": {}}, "geo_point_2d": {"lon": -123.11871635134744, "lat": 49.26886147584729}},{"park_name": null, "type": "ComfortStation", "location": "Main St and E Hastings St", "geo_local_area": "Downtown", "summer_hours": "8am (female) 6am (male) - Midnight", "winter_hours": "8am (female) 6am (male) - Midnight", "wheelchair_access": "No", "note": null, "geom": {"type": "Feature", "geometry": {"coordinates": [-123.09983455686559, 49.281101387413884], "type": "Point"}, "properties": {}}, "geo_point_2d": {"lon": -123.09983455686559, "lat": 49.281101387413884}},{"park_name": null, "type": "SmallAPT", "location": "W Hastings St and Carral St - Pigeon Park", "geo_local_area": "Downtown", "summer_hours": "9am - 9pm", "winter_hours": "9am - 9pm", "wheelchair_access": "No", "note": null, "geom": {"type": "Feature", "geometry": {"coordinates": [-123.104586555944, 49.28163278844592], "type": "Point"}, "properties": {}}, "geo_point_2d": {"lon": -123.104586555944, "lat": 49.28163278844592}},{"park_name": null, "type": "LargeAPT", "location": "Bute at Davie", "geo_local_area": "West End", "summer_hours": "24hrs - 24hrs", "winter_hours": "24hrs - 24hrs", "wheelchair_access": "Yes", "note": null, "geom": {"type": "Feature", "geometry": {"coordinates": [-123.13309096598627, 49.282049830178636], "type": "Point"}, "properties": {}}, "geo_point_2d": {"lon": -123.13309096598627, "lat": 49.282049830178636}},{"park_name": "English Bay Beach Park", "type": "Park - Field House", "location": "Bathhouse", "geo_local_area": "West End", "summer_hours": "7:00 am - Dusk", "winter_hours": "10:00 am - Dusk", "wheelchair_access": "Yes", "note": null, "geom": {"type": "Feature", "geometry": {"coordinates": [-123.14280496653117, 49.28615403908275], "type": "Point"}, "properties": {}}, "geo_point_2d": {"lon": -123.14280496653117, "lat": 49.28615403908275}},{"park_name": "Grays Park", "type": "Park - Public Washroom", "location": "Centre west by parking lot", "geo_local_area": "Kensington-Cedar Cottage", "summer_hours": "Dawn to Dusk", "winter_hours": "Closed", "wheelchair_access": "No", "note": null, "geom": {"type": "Feature", "geometry": {"coordinates": [-123.08522025523621, 49.2409609289076], "type": "Point"}, "properties": {}}, "geo_point_2d": {"lon": -123.08522025523621, "lat": 49.2409609289076}},{"park_name": "Jones Park", "type": "Park - Field House", "location": "North west corner, fieldhouse", "geo_local_area": "Kensington-Cedar Cottage", "summer_hours": "Dawn to Dusk", "winter_hours": "Dawn to Dusk", "wheelchair_access": "No", "note": null, "geom": {"type": "Feature", "geometry": {"coordinates": [-123.0683280268142, 49.236204957989564], "type": "Point"}, "properties": {}}, "geo_point_2d": {"lon": -123.0683280268142, "lat": 49.236204957989564}},{"park_name": "Oak Park", "type": "Park - Field House", "location": "East side field house", "geo_local_area": "Marpole", "summer_hours": "Dawn to Dusk", "winter_hours": "Dawn to Dusk", "wheelchair_access": "No", "note": null, "geom": {"type": "Feature", "geometry": {"coordinates": [-123.12764097866088, 49.21628599415058], "type": "Point"}, "properties": {}}, "geo_point_2d": {"lon": -123.12764097866088, "lat": 49.21628599415058}},{"park_name": "Pandora Park", "type": "Park - Field House", "location": "South side, fieldhouse", "geo_local_area": "Grandview-Woodland", "summer_hours": "9:00 am - 7:00 pm", "winter_hours": "Closed", "wheelchair_access": "No", "note": null, "geom": {"type": "Feature", "geometry": {"coordinates": [-123.05747804862285, 49.28227999739962], "type": "Point"}, "properties": {}}, "geo_point_2d": {"lon": -123.05747804862285, "lat": 49.28227999739962}},{"park_name": "Carnegie Centre", "type": "Community Center", "location": "401 Main St", "geo_local_area": "Downtown", "summer_hours": "as per CC operating hours", "winter_hours": "as per CC operating hours", "wheelchair_access": null, "note": "Maintained by Rec Center", "geom": {"type": "Feature", "geometry": {"coordinates": [-123.1001272122058, 49.28105198363986], "type": "Point"}, "properties": {}}, "geo_point_2d": {"lon": -123.1001272122058, "lat": 49.28105198363986}},{"park_name": "Douglas Park", "type": "Community Center", "location": "801 W 22nd Av", "geo_local_area": "South Cambie", "summer_hours": "as per CC operating hours", "winter_hours": "as per CC operating hours", "wheelchair_access": null, "note": "Maintained by Rec Center", "geom": {"type": "Feature", "geometry": {"coordinates": [-123.1224846980371, 49.25211550271443], "type": "Point"}, "properties": {}}, "geo_point_2d": {"lon": -123.1224846980371, "lat": 49.25211550271443}},{"park_name": "Hillcrest", "type": "Community Center", "location": "4575 Clancy Loranger Way", "geo_local_area": "Riley Park", "summer_hours": "as per CC operating hours", "winter_hours": "as per CC operating hours", "wheelchair_access": null, "note": "Maintained by Rec Center", "geom": {"type": "Feature", "geometry": {"coordinates": [-123.10801095525642, 49.24386283540143], "type": "Point"}, "properties": {}}, "geo_point_2d": {"lon": -123.10801095525642, "lat": 49.24386283540143}},{"park_name": "Kensington", "type": "Community Center", "location": "5175 Dumfries St", "geo_local_area": "Kensington-Cedar Cottage", "summer_hours": "as per CC operating hours", "winter_hours": "as per CC operating hours", "wheelchair_access": null, "note": "Maintained by Rec Center", "geom": {"type": "Feature", "geometry": {"coordinates": [-123.07466320602174, 49.237165754113256], "type": "Point"}, "properties": {}}, "geo_point_2d": {"lon": -123.07466320602174, "lat": 49.237165754113256}},{"park_name": "Killarney", "type": "Community Center", "location": "6260 Killarney St", "geo_local_area": "Killarney", "summer_hours": "as per CC operating hours", "winter_hours": "as per CC operating hours", "wheelchair_access": null, "note": "Maintained by Rec Center", "geom": {"type": "Feature", "geometry": {"coordinates": [-123.04396930018117, 49.227036528643545], "type": "Point"}, "properties": {}}, "geo_point_2d": {"lon": -123.04396930018117, "lat": 49.227036528643545}},{"park_name": "Thunderbird", "type": "Community Center", "location": "2311 Cassiar St", "geo_local_area": "Hastings-Sunrise", "summer_hours": "as per CC operating hours", "winter_hours": "as per CC operating hours", "wheelchair_access": null, "note": "Maintained by Rec Center", "geom": {"type": "Feature", "geometry": {"coordinates": [-123.03210372093348, 49.26360783509205], "type": "Point"}, "properties": {}}, "geo_point_2d": {"lon": -123.03210372093348, "lat": 49.26360783509205}},{"park_name": "New Brighton Park", "type": "Park - Field House", "location": "North east corner, fieldhouse", "geo_local_area": "Hastings-Sunrise", "summer_hours": "Dawn to Dusk", "winter_hours": "Dawn to Dusk", "wheelchair_access": "Yes", "note": null, "geom": {"type": "Feature", "geometry": {"coordinates": [-123.03602500739287, 49.289333968905524], "type": "Point"}, "properties": {}}, "geo_point_2d": {"lon": -123.03602500739287, "lat": 49.289333968905524}},{"park_name": "Stanley Park", "type": "Park - Public Washroom", "location": "Totems", "geo_local_area": null, "summer_hours": "Dawn to Dusk", "winter_hours": "Dawn to Dusk", "wheelchair_access": "Yes", "note": null, "geom": {"type": "Feature", "geometry": {"coordinates": [-123.12127801954024, 49.29944002245292], "type": "Point"}, "properties": {}}, "geo_point_2d": {"lon": -123.12127801954024, "lat": 49.29944002245292}},{"park_name": "Vancouver Technical Secondary", "type": "Park - Public Washroom", "location": "NE of synturf field", "geo_local_area": "Renfrew-Collingwood", "summer_hours": null, "winter_hours": null, "wheelchair_access": null, "note": null, "geom": {"type": "Feature", "geometry": {"coordinates": [-123.05008933604122, 49.26055815523328], "type": "Point"}, "properties": {}}, "geo_point_2d": {"lon": -123.05008933604122, "lat": 49.26055815523328}},{"park_name": "Kerrisdale Park", "type": "Park - Public Washroom", "location": "Ice Rink", "geo_local_area": "Shaughnessy", "summer_hours": null, "winter_hours": null, "wheelchair_access": null, "note": null, "geom": {"type": "Feature", "geometry": {"coordinates": [-123.15353285764634, 49.23543806889157], "type": "Point"}, "properties": {}}, "geo_point_2d": {"lon": -123.15353285764634, "lat": 49.23543806889157}},{"park_name": null, "type": "SmallAPT", "location": "Powell St and Main St", "geo_local_area": "Downtown", "summer_hours": "24hrs - 24hrs", "winter_hours": "24hrs - 24hrs", "wheelchair_access": "No", "note": null, "geom": {"type": "Feature", "geometry": {"coordinates": [-123.0998335567336, 49.28326981233583], "type": "Point"}, "properties": {}}, "geo_point_2d": {"lon": -123.0998335567336, "lat": 49.28326981233583}},{"park_name": null, "type": "LargeAPT", "location": "Bute St, Nelson Park", "geo_local_area": "West End", "summer_hours": "24hrs - 24hrs", "winter_hours": "24hrs - 24hrs", "wheelchair_access": "Yes", "note": null, "geom": {"type": "Feature", "geometry": {"coordinates": [-123.13066155087947, 49.283372391399475], "type": "Point"}, "properties": {}}, "geo_point_2d": {"lon": -123.13066155087947, "lat": 49.283372391399475}},{"park_name": "Adanac Park", "type": "Park - Field House", "location": "East side, fieldhouse", "geo_local_area": "Hastings-Sunrise", "summer_hours": "Dawn to Dusk", "winter_hours": "Dawn to Dusk", "wheelchair_access": "No", "note": null, "geom": {"type": "Feature", "geometry": {"coordinates": [-123.02407196073857, 49.27588096678926], "type": "Point"}, "properties": {}}, "geo_point_2d": {"lon": -123.02407196073857, "lat": 49.27588096678926}},{"park_name": "David Lam Park", "type": "Park - Public Washroom", "location": "West side", "geo_local_area": "Downtown", "summer_hours": "10:00 am - Dusk", "winter_hours": "10:00 am - Dusk", "wheelchair_access": "No", "note": null, "geom": {"type": "Feature", "geometry": {"coordinates": [-123.12541503573894, 49.272383006627635], "type": "Point"}, "properties": {}}, "geo_point_2d": {"lon": -123.12541503573894, "lat": 49.272383006627635}},{"park_name": "John Hendry (Trout Lake) Park", "type": "Park - Field House", "location": "At Trout Lake", "geo_local_area": "Kensington-Cedar Cottage", "summer_hours": "Dawn to Dusk", "winter_hours": "Dawn to Dusk", "wheelchair_access": "Yes", "note": null, "geom": {"type": "Feature", "geometry": {"coordinates": [-123.0613879883137, 49.25392603797215], "type": "Point"}, "properties": {}}, "geo_point_2d": {"lon": -123.0613879883137, "lat": 49.25392603797215}},{"park_name": "Memorial West Park", "type": "Park - Field House", "location": "Central, field house", "geo_local_area": "Dunbar-Southlands", "summer_hours": "Dawn to Dusk", "winter_hours": "Dawn to Dusk", "wheelchair_access": "No", "note": null, "geom": {"type": "Feature", "geometry": {"coordinates": [-123.18845500351183, 49.243334983865445], "type": "Point"}, "properties": {}}, "geo_point_2d": {"lon": -123.18845500351183, "lat": 49.243334983865445}},{"park_name": "Strathcona Park", "type": "Park - Field House", "location": "South side, fieldhouse", "geo_local_area": "Strathcona", "summer_hours": "Dawn to Dusk", "winter_hours": "Dawn to Dusk", "wheelchair_access": "No", "note": null, "geom": {"type": "Feature", "geometry": {"coordinates": [-123.08618899110526, 49.27455700573556], "type": "Point"}, "properties": {}}, "geo_point_2d": {"lon": -123.08618899110526, "lat": 49.27455700573556}},{"park_name": "Mount Pleasant", "type": "Community Center", "location": "1 Kingsway", "geo_local_area": "Mount Pleasant", "summer_hours": "as per CC operating hours", "winter_hours": "as per CC operating hours", "wheelchair_access": null, "note": "Maintained by Rec Center", "geom": {"type": "Feature", "geometry": {"coordinates": [-123.10022103999772, 49.264314648364575], "type": "Point"}, "properties": {}}, "geo_point_2d": {"lon": -123.10022103999772, "lat": 49.264314648364575}},{"park_name": "Queen Elizabeth Park", "type": "Park - Public Washroom", "location": "Lookout", "geo_local_area": "Riley Park", "summer_hours": "7:30 am - 9:00 pm", "winter_hours": "7:30 am - 9:00 pm", "wheelchair_access": "No", "note": null, "geom": {"type": "Feature", "geometry": {"coordinates": [-123.1129392155845, 49.24221158928846], "type": "Point"}, "properties": {}}, "geo_point_2d": {"lon": -123.1129392155845, "lat": 49.24221158928846}},{"park_name": "Stanley Park", "type": "Park - Public Washroom", "location": "Pavilion", "geo_local_area": null, "summer_hours": "Dawn to Dusk", "winter_hours": "Dawn to Dusk", "wheelchair_access": "Yes", "note": null, "geom": {"type": "Feature", "geometry": {"coordinates": [-123.13405101599092, 49.29954903031622], "type": "Point"}, "properties": {}}, "geo_point_2d": {"lon": -123.13405101599092, "lat": 49.29954903031622}},{"park_name": "Garden Park", "type": "Park - Field House", "location": "North east corner, fieldhouse", "geo_local_area": "Grandview-Woodland", "summer_hours": "Dawn to Dusk", "winter_hours": "Dawn to Dusk", "wheelchair_access": "No", "note": null, "geom": {"type": "Feature", "geometry": {"coordinates": [-123.05833399382524, 49.26828599758696], "type": "Point"}, "properties": {}}, "geo_point_2d": {"lon": -123.05833399382524, "lat": 49.26828599758696}},{"park_name": "Grandview Park", "type": "Park - Public Washroom", "location": "North East Corner", "geo_local_area": "Grandview-Woodland", "summer_hours": "Dawn to Dusk", "winter_hours": "Dawn to Dusk", "wheelchair_access": "Yes", "note": null, "geom": {"type": "Feature", "geometry": {"coordinates": [-123.06995444645655, 49.27376163002874], "type": "Point"}, "properties": {}}, "geo_point_2d": {"lon": -123.06995444645655, "lat": 49.27376163002874}},{"park_name": "Maple Grove Park", "type": "Park - Field House", "location": "Central, field house", "geo_local_area": "Kerrisdale", "summer_hours": "Dawn to Dusk", "winter_hours": "Dawn to Dusk", "wheelchair_access": "Yes", "note": null, "geom": {"type": "Feature", "geometry": {"coordinates": [-123.15958297476698, 49.223384020699434], "type": "Point"}, "properties": {}}, "geo_point_2d": {"lon": -123.15958297476698, "lat": 49.223384020699434}},{"park_name": "Prince Edward Park", "type": "Park - Field House", "location": "Sout east corner, fieldhouse", "geo_local_area": "Riley Park", "summer_hours": "Dawn to Dusk", "winter_hours": "Dawn to Dusk", "wheelchair_access": "No", "note": null, "geom": {"type": "Feature", "geometry": {"coordinates": [-123.09705699407517, 49.25119097086864], "type": "Point"}, "properties": {}}, "geo_point_2d": {"lon": -123.09705699407517, "lat": 49.25119097086864}},{"park_name": "Creekside", "type": "Community Center", "location": "1 Athletes Way", "geo_local_area": "Mount Pleasant", "summer_hours": "as per CC operating hours", "winter_hours": "as per CC operating hours", "wheelchair_access": null, "note": "Maintained by Rec Center", "geom": {"type": "Feature", "geometry": {"coordinates": [-123.10558600026903, 49.27178699895438], "type": "Point"}, "properties": {}}, "geo_point_2d": {"lon": -123.10558600026903, "lat": 49.27178699895438}},{"park_name": "False Creek", "type": "Community Center", "location": "1318 Cartwright St", "geo_local_area": "Fairview", "summer_hours": "as per CC operating hours", "winter_hours": "as per CC operating hours", "wheelchair_access": null, "note": "Maintained by Rec Center", "geom": {"type": "Feature", "geometry": {"coordinates": [-123.13402027146624, 49.269397069509424], "type": "Point"}, "properties": {}}, "geo_point_2d": {"lon": -123.13402027146624, "lat": 49.269397069509424}},{"park_name": "Kitsilano Beach Park", "type": "Park - Field House", "location": "Kitsilano Showboat concession", "geo_local_area": "Kitsilano", "summer_hours": "Dawn to Dusk", "winter_hours": "Dawn to Dusk", "wheelchair_access": "Yes", "note": null, "geom": {"type": "Feature", "geometry": {"coordinates": [-123.15754296825496, 49.273014033025405], "type": "Point"}, "properties": {}}, "geo_point_2d": {"lon": -123.15754296825496, "lat": 49.273014033025405}},{"park_name": null, "type": "ComfortStation", "location": "Victory Square", "geo_local_area": "Downtown", "summer_hours": "8am (female) 6am (male) - Midnight", "winter_hours": "8am (female) 6am (male) - Midnight", "wheelchair_access": "No", "note": null, "geom": {"type": "Feature", "geometry": {"coordinates": [-123.11011655435036, 49.28258498871338], "type": "Point"}, "properties": {}}, "geo_point_2d": {"lon": -123.11011655435036, "lat": 49.28258498871338}},{"park_name": null, "type": "LargeAPT", "location": "Vancouver Art Gallery", "geo_local_area": "Downtown", "summer_hours": "6am - 10pm", "winter_hours": "6am - 10pm", "wheelchair_access": "Yes", "note": null, "geom": {"type": "Feature", "geometry": {"coordinates": [-123.11984855327826, 49.28295538960404], "type": "Point"}, "properties": {}}, "geo_point_2d": {"lon": -123.11984855327826, "lat": 49.28295538960404}}]